City_ID,City,Lat,Lng,Max Temp,Humidity,Cloudiness,Wind Speed,Country,Date
0,tazacorte,28.629,-17.9293,19.54,80,100,2.57,ES,2023-05-25
1,ushuaia,-54.8,-68.3,0.81,80,20,3.6,AR,2023-05-25
2,iqaluit,63.7506,-68.5145,1.85,74,75,4.47,CA,2023-05-25
3,haiku-pauwela,20.9219,-156.3051,26.2,69,75,8.23,US,2023-05-25
4,vorgashor,67.5833,63.95,13.26,76,96,4.19,RU,2023-05-25
5,adamstown,-25.066,-130.1015,23.41,68,46,2.51,PN,2023-05-25
6,petropavlovsk-kamchatsky,53.0452,158.6483,10.33,66,40,2.0,RU,2023-05-25
7,san ignacio de velasco,-16.3667,-60.95,25.1,70,79,1.44,BO,2023-05-25
8,richards bay,-28.783,32.0377,23.13,63,2,7.42,ZA,2023-05-25
9,invercargill,-46.4,168.35,13.82,73,100,5.73,NZ,2023-05-25
10,waitangi,-43.9535,-176.5597,14.34,82,6,1.34,NZ,2023-05-25
11,amahai,-3.3333,128.9167,30.0,79,100,4.56,ID,2023-05-25
12,whitehorse,60.7161,-135.0538,15.17,54,100,9.26,CA,2023-05-25
13,calvi,42.5,8.8333,12.35,88,0,3.6,FR,2023-05-25
14,lubango,-14.9172,13.4925,15.36,49,0,1.23,AO,2023-05-25
15,kununurra,-15.7667,128.7333,17.99,72,4,1.03,AU,2023-05-25
16,anastacio,-20.4836,-55.8069,24.06,60,31,2.13,BR,2023-05-25
17,port-aux-francais,-49.35,70.2167,5.38,99,99,8.52,TF,2023-05-25
18,bredasdorp,-34.5322,20.0403,9.41,83,52,4.54,ZA,2023-05-25
19,papatowai,-46.5619,169.4708,14.26,63,100,5.52,NZ,2023-05-25
20,hawaiian paradise park,19.5933,-154.9731,26.73,78,40,7.2,US,2023-05-25
21,ribas do rio pardo,-20.4431,-53.7592,23.02,60,36,2.09,BR,2023-05-25
22,stanley,54.868,-1.6985,12.16,87,0,1.54,GB,2023-05-25
23,remire-montjoly,4.9167,-52.2667,24.02,100,20,1.03,GF,2023-05-25
24,oliver,49.1831,-119.5524,18.95,59,98,2.06,CA,2023-05-25
25,edinburgh of the seven seas,-37.0676,-12.3116,16.25,81,50,11.58,SH,2023-05-25
26,pointe michel,15.25,-61.3833,27.16,80,26,4.45,DM,2023-05-25
27,dudinka,69.4058,86.1778,1.46,93,83,4.97,RU,2023-05-25
28,susuman,62.7833,148.1667,6.17,49,24,1.69,RU,2023-05-25
29,nieuw nickerie,5.95,-56.9833,26.47,89,79,3.11,SR,2023-05-25
30,kiiminki,65.1314,25.7974,6.48,79,44,3.78,FI,2023-05-25
31,korla,41.7597,86.1469,17.25,30,69,2.66,CN,2023-05-25
32,bethel,41.3712,-73.414,18.31,47,0,4.12,US,2023-05-25
33,kodiak,57.79,-152.4072,9.73,57,100,3.6,US,2023-05-25
34,kuala belait,4.5833,114.1833,26.09,83,100,1.63,BN,2023-05-25
35,college,64.8569,-147.8028,22.83,30,75,4.63,US,2023-05-25
36,khorinsk,52.1657,109.7726,3.39,77,99,5.75,RU,2023-05-25
37,puerto ayora,-0.7393,-90.3518,26.42,89,31,3.58,EC,2023-05-25
38,albany,42.6001,-73.9662,17.46,45,36,3.98,US,2023-05-25
39,broome,42.2506,-75.833,15.81,49,0,5.14,US,2023-05-25
40,egilsstadir,65.2653,-14.3948,7.95,46,0,3.6,IS,2023-05-25
41,dwarka,22.2394,68.9678,28.07,87,20,10.4,IN,2023-05-25
42,bilibino,68.0546,166.4372,8.43,49,99,0.63,RU,2023-05-25
43,st. john's,47.5649,-52.7093,4.32,94,100,3.6,CA,2023-05-25
44,camargo,27.6667,-105.1667,34.46,11,53,3.65,MX,2023-05-25
45,nouadhibou,20.931,-17.0347,17.99,94,100,7.2,MR,2023-05-25
46,nova sintra,14.8667,-24.7167,20.74,83,96,7.09,CV,2023-05-25
47,longyearbyen,78.2186,15.6401,-0.09,93,100,10.29,SJ,2023-05-25
48,kiffa,16.6166,-11.4045,30.84,41,63,2.84,MR,2023-05-25
49,yamba,-5.9,22.3,23.32,70,35,0.61,CD,2023-05-25
50,puerto baquerizo moreno,-0.9,-89.6,26.02,77,48,4.7,EC,2023-05-25
51,nicoya,10.1483,-85.452,28.71,71,95,0.85,CR,2023-05-25
52,qamdo,31.1667,97.2333,2.82,59,5,2.42,CN,2023-05-25
53,puerto natales,-51.7236,-72.4875,1.03,89,96,2.48,CL,2023-05-25
54,uturoa,-16.7333,-151.4333,27.43,77,34,5.41,PF,2023-05-25
55,kismayo,-0.3582,42.5454,26.43,77,7,6.19,SO,2023-05-25
56,boende,-0.2167,20.8667,23.06,90,100,1.5,CD,2023-05-25
57,novyy urgal,51.0736,132.5642,15.04,76,97,3.63,RU,2023-05-25
58,besancon,47.2488,6.0182,13.97,91,3,2.07,FR,2023-05-25
59,klyuchi,52.2667,79.1667,13.0,41,100,3.84,RU,2023-05-25
60,haenam,34.5711,126.5989,18.8,77,82,1.95,KR,2023-05-25
61,north bend,43.4065,-124.2243,24.58,68,0,10.8,US,2023-05-25
62,magomeni,-6.8,39.25,23.18,86,5,2.72,TZ,2023-05-25
63,vilyuchinsk,52.9306,158.4028,11.15,78,88,1.6,RU,2023-05-25
64,grytviken,-54.2811,-36.5092,1.6,99,99,2.51,GS,2023-05-25
65,qaqortoq,60.7167,-46.0333,0.7,100,100,0.33,GL,2023-05-25
66,waingapu,-9.6567,120.2641,23.98,83,36,3.69,ID,2023-05-25
67,charters towers,-20.1,146.2667,19.5,65,53,1.52,AU,2023-05-25
68,east london,-33.0153,27.9116,16.3,72,99,8.97,ZA,2023-05-25
69,codrington,-38.2667,141.9667,11.17,68,100,6.49,AU,2023-05-25
70,olonkinbyen,70.9221,-8.7187,-0.54,68,37,10.12,SJ,2023-05-25
71,salalah,17.0151,54.0924,30.05,74,20,3.09,OM,2023-05-25
72,santa rosalia,27.3167,-112.2833,28.55,30,99,1.03,MX,2023-05-25
73,masuguru,-11.3667,38.4167,20.14,83,55,1.12,TZ,2023-05-25
74,poronaysk,49.2167,143.1167,10.71,72,99,1.54,RU,2023-05-25
75,tsumeb,-19.2333,17.7167,18.87,29,27,3.21,NA,2023-05-25
76,yellowknife,62.456,-114.3525,13.29,58,75,3.09,CA,2023-05-25
77,kone,-21.0595,164.8658,24.27,42,0,1.32,NC,2023-05-25
78,popondetta,-8.7537,148.2534,23.46,95,100,0.37,PG,2023-05-25
79,jamestown,42.097,-79.2353,14.77,52,0,4.12,US,2023-05-25
80,yaren,-0.5472,166.916,28.55,68,56,1.06,NR,2023-05-25
81,yerofey pavlovich,53.9667,121.9667,6.9,92,100,3.31,RU,2023-05-25
82,torbat-e jam,35.244,60.6225,20.44,18,0,3.92,IR,2023-05-25
83,port alfred,-33.5906,26.891,12.32,91,82,3.13,ZA,2023-05-25
84,el sauzal de rodriguez,31.9,-116.6833,18.01,63,0,4.63,MX,2023-05-25
85,coihueco,-36.6167,-71.8333,11.41,76,26,2.57,CL,2023-05-25
86,qeshm,26.9581,56.2719,27.94,72,25,1.34,IR,2023-05-25
87,badger,64.8,-147.5333,22.78,29,20,4.63,US,2023-05-25
88,krasnovishersk,60.4078,57.082,14.74,74,57,2.04,RU,2023-05-25
89,port mathurin,-19.6833,63.4167,25.26,76,13,5.87,MU,2023-05-25
90,guerrero negro,27.9769,-114.0611,18.94,59,94,8.69,MX,2023-05-25
91,xichang,27.8964,102.2634,19.47,75,69,0.27,CN,2023-05-25
92,vadso,70.0744,29.7487,6.49,70,75,3.09,NO,2023-05-25
93,west island,-12.1568,96.8225,26.99,83,40,6.69,CC,2023-05-25
94,ilulissat,69.2167,-51.1,2.01,55,0,0.51,GL,2023-05-25
95,benjamin constant,-4.3831,-70.0311,27.07,78,20,1.03,BR,2023-05-25
96,nemuro,43.3236,145.575,10.11,83,2,3.32,JP,2023-05-25
97,hobyo,5.3505,48.5268,27.79,77,24,6.76,SO,2023-05-25
98,vorkuta,67.5,64.0,13.74,75,98,4.29,RU,2023-05-25
99,guiuan,11.0333,125.7247,28.1,75,90,3.06,PH,2023-05-25
100,wajir,1.7471,40.0573,26.11,68,93,7.12,KE,2023-05-25
101,egersund,58.4513,5.9997,9.49,73,100,8.44,NO,2023-05-25
102,zhezqazghan,47.7833,67.7667,16.37,37,2,3.45,KZ,2023-05-25
103,akureyri,65.6835,-18.0878,7.96,49,75,2.57,IS,2023-05-25
104,isangel,-19.55,169.2667,26.06,61,20,2.57,VU,2023-05-25
105,blackmans bay,-43.0167,147.3167,9.29,73,71,4.5,AU,2023-05-25
106,tieling,42.2931,123.8414,18.56,57,38,8.44,CN,2023-05-25
107,chui,-33.6971,-53.4616,19.75,77,63,2.79,UY,2023-05-25
108,punta arenas,-53.15,-70.9167,2.84,87,75,5.14,CL,2023-05-25
109,el granada,37.5027,-122.4694,23.57,71,100,9.26,US,2023-05-25
110,aoulef,26.9667,1.0833,28.66,9,19,3.36,DZ,2023-05-25
111,margaret river,-33.95,115.0667,7.98,80,0,3.27,AU,2023-05-25
112,talnakh,69.4865,88.3972,1.23,95,91,3.58,RU,2023-05-25
113,utrik,11.2278,169.8474,27.93,80,100,8.57,MH,2023-05-25
114,thinadhoo,0.5333,72.9333,28.39,73,54,4.05,MV,2023-05-25
115,kingston,17.997,-76.7936,29.56,80,0,1.34,JM,2023-05-25
116,hamilton,39.1834,-84.5333,21.47,31,0,7.2,US,2023-05-25
117,fortuna,40.5982,-124.1573,12.19,100,100,6.17,US,2023-05-25
118,cabo san lucas,22.8909,-109.9124,31.45,30,75,3.6,MX,2023-05-25
119,hilo,19.7297,-155.09,26.85,78,40,7.2,US,2023-05-25
120,wailua homesteads,22.0669,-159.378,27.24,74,75,5.14,US,2023-05-25
121,dilling,12.05,29.65,32.06,26,38,2.29,SD,2023-05-25
122,avarua,-21.2078,-159.775,24.03,94,75,3.6,CK,2023-05-25
123,champerico,14.3,-91.9167,30.3,67,34,5.15,GT,2023-05-25
124,orkney,-26.9802,26.6727,13.31,40,74,6.85,ZA,2023-05-25
125,as sulayyil,20.4607,45.5779,30.14,26,99,2.46,SA,2023-05-25
126,atafu village,-8.5421,-172.5159,28.61,73,32,4.23,TK,2023-05-25
127,ikom,5.9667,8.7063,24.34,98,99,1.01,NG,2023-05-25
128,thompson,55.7435,-97.8558,13.09,100,100,1.54,CA,2023-05-25
129,sao vicente,-23.9631,-46.3919,24.43,26,4,0.79,BR,2023-05-25
130,isafjordur,66.0755,-23.124,4.75,73,95,2.63,IS,2023-05-25
131,mabaruma,8.2,-59.7833,25.94,86,33,2.4,GY,2023-05-25
132,nizhnesortymskiy,62.4397,71.7603,10.42,50,18,3.46,RU,2023-05-25
133,iwanai,42.9744,140.5089,19.67,41,32,1.97,JP,2023-05-25
134,girua,-28.0283,-54.3497,19.24,61,0,3.44,BR,2023-05-25
135,saipan,15.1355,145.701,28.39,100,100,8.75,MP,2023-05-25
136,fale old settlement,-9.3852,-171.2468,28.46,74,16,4.9,TK,2023-05-25
137,cartagena del chaira,1.3349,-74.8429,23.39,92,77,0.51,CO,2023-05-25
138,happy valley-goose bay,53.3168,-60.3315,8.17,57,20,5.14,CA,2023-05-25
139,naze,28.3667,129.4833,22.51,70,90,4.3,JP,2023-05-25
140,altay,47.8667,88.1167,9.62,76,44,0.34,CN,2023-05-25
141,pago pago,-14.2781,-170.7025,28.55,89,75,5.14,AS,2023-05-25
142,bhadra,29.1167,75.1667,27.7,58,78,3.68,IN,2023-05-25
143,hadibu,12.65,54.0333,29.02,72,1,2.84,YE,2023-05-25
144,kalmunai,7.4167,81.8167,26.61,84,1,1.2,LK,2023-05-25
145,grand-bassam,5.2118,-3.7388,27.98,87,80,2.37,CI,2023-05-25
146,queenstown,-31.8976,26.8753,9.31,68,71,11.21,ZA,2023-05-25
147,kirby,29.4633,-98.3856,30.78,55,40,3.6,US,2023-05-25
148,constantia,44.1833,28.65,16.5,90,56,2.87,RO,2023-05-25
149,tiksi,71.6872,128.8694,-0.86,81,100,3.93,RU,2023-05-25
150,patacamaya,-17.2333,-67.9167,9.19,37,46,1.77,BO,2023-05-25
151,carnarvon,-24.8667,113.6333,19.11,55,100,8.12,AU,2023-05-25
152,namibe,-15.1961,12.1522,20.01,73,0,3.71,AO,2023-05-25
153,arawa,-6.2132,155.5367,28.52,71,100,0.74,PG,2023-05-25
154,licata,37.1071,13.9461,17.87,72,99,4.21,IT,2023-05-25
155,hasaki,35.7333,140.8333,21.27,62,51,5.5,JP,2023-05-25
156,ust'-kut,56.7938,105.7672,2.33,94,51,1.34,RU,2023-05-25
157,ribeira grande,38.5167,-28.7,17.1,82,54,5.36,PT,2023-05-25
158,flying fish cove,-10.4217,105.6791,25.82,94,100,5.66,CX,2023-05-25
159,luderitz,-26.6481,15.1594,11.82,83,0,4.22,NA,2023-05-25
160,tura,25.5198,90.2201,20.52,95,99,1.73,IN,2023-05-25
161,arraial do cabo,-22.9661,-42.0278,19.98,100,20,2.06,BR,2023-05-25
162,vila franca do campo,37.7167,-25.4333,17.23,85,25,3.05,PT,2023-05-25
163,lebu,-37.6167,-73.65,12.25,86,69,8.36,CL,2023-05-25
164,conceicao da barra,-18.5933,-39.7322,21.49,91,18,2.55,BR,2023-05-25
165,suoyarvi,62.0833,32.35,7.95,94,68,2.11,RU,2023-05-25
166,kamianske,48.5113,34.6021,15.24,95,96,2.49,UA,2023-05-25
167,changji,44.0167,87.3167,18.44,34,0,1.0,CN,2023-05-25
168,cambridge,43.3601,-80.3127,17.21,37,0,3.09,CA,2023-05-25
169,petauke,-14.2426,31.3253,16.25,68,0,2.62,ZM,2023-05-25
170,brezina,33.0989,1.2608,20.63,30,14,2.47,DZ,2023-05-25
171,touros,-5.1989,-35.4608,25.84,85,82,5.83,BR,2023-05-25
172,edd,13.9297,41.6925,31.76,62,3,3.93,ER,2023-05-25
173,yanykurgan,43.915,67.2481,20.78,25,0,4.82,KZ,2023-05-25
174,afaahiti,-17.75,-149.2833,28.93,75,28,3.54,PF,2023-05-25
175,tangzhai,34.4328,116.5911,21.01,64,74,2.97,CN,2023-05-25
176,mata-utu,-13.2816,-176.1745,28.46,72,80,6.57,WF,2023-05-25
177,keflavik,64.0049,-22.5624,6.95,87,100,5.66,IS,2023-05-25
178,durban,-29.8579,31.0292,23.51,58,4,5.84,ZA,2023-05-25
179,jinchang,38.4953,102.1739,14.81,27,100,1.7,CN,2023-05-25
180,ust-nera,64.5667,143.2,4.68,60,39,1.87,RU,2023-05-25
181,lihue,21.9789,-159.3672,27.58,74,75,5.14,US,2023-05-25
182,greenville,35.6127,-77.3663,19.09,73,0,4.12,US,2023-05-25
183,oriximina,-1.7656,-55.8661,25.13,90,97,1.88,BR,2023-05-25
184,souillac,-20.5167,57.5167,23.24,84,100,6.96,MU,2023-05-25
185,belmonte,-15.8631,-38.8828,23.2,89,17,4.17,BR,2023-05-25
186,banff,51.1762,-115.5698,15.57,41,100,1.54,CA,2023-05-25
187,labrador city,52.9463,-66.9114,8.95,40,0,4.12,CA,2023-05-25
188,iskilip,40.7353,34.4739,13.46,79,74,1.56,TR,2023-05-25
189,sant lluis,39.8526,4.2594,17.22,100,75,2.57,ES,2023-05-25
190,aykhal,66.0,111.5,-0.69,81,97,4.21,RU,2023-05-25
191,korolevo,48.1525,23.1366,13.82,79,18,2.72,UA,2023-05-25
192,madinat ash shamal,26.1293,51.2009,29.45,64,0,3.35,QA,2023-05-25
193,bodmin,50.4715,-4.7243,13.29,76,75,1.54,GB,2023-05-25
194,fisterra,42.9049,-9.2629,16.12,74,0,9.8,ES,2023-05-25
195,simpang,-1.2667,104.0833,23.55,99,73,1.39,ID,2023-05-25
196,pavlogradka,54.2024,73.5592,12.33,67,100,4.61,RU,2023-05-25
197,sisimiut,66.9395,-53.6735,-0.13,85,92,4.9,GL,2023-05-25
198,nadym,65.5333,72.5167,11.47,55,99,6.08,RU,2023-05-25
199,yantarnyy,54.8717,19.9381,10.92,89,21,2.68,RU,2023-05-25
200,tayzhina,53.6679,87.4362,1.48,78,31,2.26,RU,2023-05-25
201,jequie,-13.8575,-40.0836,21.41,96,97,2.12,BR,2023-05-25
202,pandan,14.0453,124.1694,28.2,80,100,3.45,PH,2023-05-25
203,iskateley,67.6803,53.1512,15.2,89,71,6.38,RU,2023-05-25
204,georgetown,5.4112,100.3354,27.75,83,20,1.54,MY,2023-05-25
205,ribeira brava,32.65,-17.0667,18.35,76,53,1.24,PT,2023-05-25
206,aldan,58.6031,125.3894,6.4,66,85,3.89,RU,2023-05-25
207,mount isa,-20.7333,139.5,19.87,30,0,8.75,AU,2023-05-25
208,gizo,-8.103,156.8419,26.96,84,98,5.76,SB,2023-05-25
209,gadzhiyevo,69.2551,33.3362,7.81,56,8,4.11,RU,2023-05-25
210,kalaleh,37.3807,55.4916,23.1,53,60,0.43,IR,2023-05-25
211,salym,60.0625,71.4789,7.9,62,1,1.89,RU,2023-05-25
212,kansk,56.2017,95.7175,5.06,66,88,1.43,RU,2023-05-25
213,nikolayevsk-on-amure,53.1406,140.73,9.47,75,100,1.8,RU,2023-05-25
214,siwa oasis,29.2041,25.5195,27.92,32,100,9.11,EG,2023-05-25
215,udachny,66.4167,112.4,1.92,59,99,4.48,RU,2023-05-25
216,garissa,-0.4536,39.6401,24.35,76,25,6.9,KE,2023-05-25
217,sakakah,29.9697,40.2064,22.76,22,2,6.53,SA,2023-05-25
218,zgurovka,50.5028,31.7849,15.19,84,83,1.71,UA,2023-05-25
219,rengasdengklok,-6.1592,107.2981,25.07,81,51,1.73,ID,2023-05-25
220,jean-rabel,19.8533,-73.1917,28.47,69,0,4.73,HT,2023-05-25
221,enewetak,11.3474,162.3373,27.93,77,97,6.9,MH,2023-05-25
222,nar'yan-mar,67.6713,53.087,15.17,90,73,6.21,RU,2023-05-25
223,takoradi,4.8845,-1.7554,27.18,83,62,3.31,GH,2023-05-25
224,bathsheba,13.2167,-59.5167,28.34,83,40,4.63,BB,2023-05-25
225,khilok,51.3674,110.4676,3.86,60,97,5.83,RU,2023-05-25
226,faya-largeau,17.9257,19.1043,35.08,12,0,3.13,TD,2023-05-25
227,kuanda,56.3161,116.0806,4.06,98,100,1.75,RU,2023-05-25
228,hounde,11.5,-3.5167,28.46,60,81,2.44,BF,2023-05-25
229,oban,56.4127,-5.4706,8.54,87,14,1.75,GB,2023-05-25
230,penzance,50.1186,-5.5371,13.38,88,37,4.55,GB,2023-05-25
231,launceston,-41.45,147.1667,9.33,83,57,6.17,AU,2023-05-25
232,andergrove,-21.0833,149.1833,23.69,71,82,3.5,AU,2023-05-25
233,hermanus,-34.4187,19.2345,9.89,66,29,6.23,ZA,2023-05-25
234,pontianak,-0.0333,109.3333,23.99,94,20,3.09,ID,2023-05-25
235,meadow lakes,61.6247,-149.6011,14.05,65,20,0.0,US,2023-05-25
236,lorengau,-2.0226,147.2712,27.23,78,100,1.32,PG,2023-05-25
237,khash,28.2211,61.2158,22.74,18,17,1.87,IR,2023-05-25
238,geraldton,-28.7667,114.6,12.23,62,21,4.12,AU,2023-05-25
239,nguigmi,14.2495,13.1092,32.22,34,5,2.88,NE,2023-05-25
240,neryungri,56.6709,124.6491,7.11,61,100,5.37,RU,2023-05-25
241,correntina,-13.3433,-44.6367,26.11,45,46,4.31,BR,2023-05-25
242,merritt,50.1123,-120.7942,24.07,32,81,1.34,CA,2023-05-25
243,mao,39.8885,4.2658,17.31,100,72,2.57,ES,2023-05-25
244,palikir - national government center,6.9248,158.1611,28.47,84,75,3.09,FM,2023-05-25
245,bengkulu,-3.8004,102.2655,25.32,86,68,1.96,ID,2023-05-25
246,labytnangi,66.6572,66.4183,13.82,76,89,3.05,RU,2023-05-25
247,oyama,36.3,139.8,21.44,55,88,3.56,JP,2023-05-25
248,village of oak creek (big park),34.7809,-111.7623,29.28,12,0,5.14,US,2023-05-25
249,rio grande,-32.035,-52.0986,18.06,82,1,4.14,BR,2023-05-25
250,capri,40.5507,14.2426,21.33,72,0,2.57,IT,2023-05-25
251,mulanje,-16.0316,35.5,16.56,79,0,1.54,MW,2023-05-25
252,miri,4.4148,114.0089,26.08,83,20,2.57,MY,2023-05-25
253,mitchell,43.7094,-98.0298,29.99,30,0,6.69,US,2023-05-25
254,soran,49.78,72.8506,12.27,71,94,2.01,KZ,2023-05-25
255,cooper's town,26.8667,-77.5167,26.27,67,3,0.25,BS,2023-05-25
256,urangan,-25.3,152.9,19.0,91,0,2.37,AU,2023-05-25
257,lompoc,34.6391,-120.4579,22.61,70,35,7.6,US,2023-05-25
258,pacasmayo,-7.4006,-79.5714,23.52,75,72,7.49,PE,2023-05-25
259,tomatlan,19.9333,-105.25,36.34,23,91,5.85,MX,2023-05-25
260,velizh,55.6056,31.1967,12.63,86,97,1.84,RU,2023-05-25
261,genhe,50.7833,121.5167,7.88,82,100,4.26,CN,2023-05-25
262,sandnessjoen,66.0217,12.6316,3.29,87,100,2.24,NO,2023-05-25
263,san rafael del sur,11.8485,-86.4384,31.54,70,100,1.82,NI,2023-05-25
264,sibi,29.5448,67.8764,32.02,17,46,1.58,PK,2023-05-25
265,williams lake,52.1415,-122.1445,22.81,43,75,2.06,CA,2023-05-25
266,oltenita,44.0833,26.6333,14.15,92,28,1.86,RO,2023-05-25
267,onguday,50.75,86.15,3.03,86,19,1.03,RU,2023-05-25
268,terme,41.2092,36.9739,14.96,96,96,1.16,TR,2023-05-25
269,sabang,5.8933,95.3214,28.4,75,100,6.74,ID,2023-05-25
270,weligama,5.9667,80.4167,26.89,85,29,4.55,LK,2023-05-25
271,tazovsky,67.4667,78.7,3.72,85,100,4.86,RU,2023-05-25
272,port elizabeth,-33.918,25.5701,13.39,79,20,8.23,ZA,2023-05-25
273,port hedland,-20.3167,118.5667,19.03,34,24,5.66,AU,2023-05-25
274,nieuw amsterdam,5.8833,-55.0833,25.09,93,40,2.06,SR,2023-05-25
275,sodankyla,67.4167,26.6,4.57,67,95,2.82,FI,2023-05-25
276,tanggu,39.0211,117.6469,19.98,65,100,1.88,CN,2023-05-25
277,zouerate,22.7187,-12.4521,23.48,64,100,6.34,MR,2023-05-25
278,yuzhno-kurilsk,44.0306,145.8556,12.96,65,0,3.17,RU,2023-05-25
279,holualoa,19.6228,-155.9522,24.75,76,75,3.6,US,2023-05-25
280,solwezi,-12.1688,26.3894,14.55,60,0,1.24,ZM,2023-05-25
281,severo-yeniseyskiy,60.3725,93.0408,0.21,85,37,2.45,RU,2023-05-25
282,bereznik,62.8551,42.7072,13.87,96,100,1.45,RU,2023-05-25
283,thakhek,17.4103,104.8307,25.06,96,93,1.51,LA,2023-05-25
284,mugia,43.1041,-9.2179,16.2,78,0,11.01,ES,2023-05-25
285,grand falls-windsor,48.9332,-55.6649,3.06,91,100,2.68,CA,2023-05-25
286,ha tinh,18.3333,105.9,26.04,82,51,0.94,VN,2023-05-25
287,palasa,18.7667,84.4167,26.66,71,58,2.92,IN,2023-05-25
288,hoi an,15.8794,108.335,25.98,82,61,2.34,VN,2023-05-25
289,despenaderos,-31.8163,-64.2899,20.85,95,64,2.26,AR,2023-05-25
290,nizhneangarsk,55.7833,109.55,1.78,75,61,0.4,RU,2023-05-25
291,qobustan,40.0824,49.412,22.8,67,100,4.82,AZ,2023-05-25
292,zaigrayevo,51.8336,108.2703,3.0,93,98,4.25,RU,2023-05-25
293,mooirivier,-29.2082,29.9946,17.11,41,3,8.38,ZA,2023-05-25
294,san antonio de pale,-1.4014,5.6325,26.23,86,99,7.15,GQ,2023-05-25
295,bratsk,56.1325,101.6142,4.27,97,100,1.64,RU,2023-05-25
296,strezhevoy,60.7333,77.5889,6.89,55,9,1.24,RU,2023-05-25
297,awjilah,29.1081,21.2869,26.04,32,73,6.19,LY,2023-05-25
298,usinsk,65.9939,57.5281,16.52,77,16,8.17,RU,2023-05-25
299,anadyr,64.75,177.4833,0.28,93,75,3.0,RU,2023-05-25
300,kohima,25.6667,94.1167,15.41,90,74,1.1,IN,2023-05-25
301,maceio,-9.6658,-35.7353,24.69,94,40,0.51,BR,2023-05-25
302,pacific grove,36.6177,-121.9166,16.35,75,100,5.66,US,2023-05-25
303,boguchany,58.3814,97.4531,5.22,78,99,3.27,RU,2023-05-25
304,fort bragg,35.139,-79.006,21.75,66,100,7.2,US,2023-05-25
305,armacao de buzios,-22.7469,-41.8817,20.09,86,0,5.14,BR,2023-05-25
306,hami,42.8,93.45,20.9,23,100,2.4,CN,2023-05-25
307,aksu,41.1231,80.2644,14.61,48,100,1.96,CN,2023-05-25
308,massawa,15.6097,39.45,31.86,68,35,2.9,ER,2023-05-25
309,bonthe,7.5264,-12.505,27.24,82,100,2.49,SL,2023-05-25
310,buurhakaba,2.8026,44.0781,23.27,86,13,2.01,SO,2023-05-25
311,taltal,-25.4,-70.4833,16.45,85,77,0.45,CL,2023-05-25
312,namdrik,5.5994,168.1028,28.64,76,99,7.1,MH,2023-05-25
313,las lomitas,-24.7096,-60.593,24.64,53,91,2.69,AR,2023-05-25
314,wuwei,37.9281,102.6414,14.33,38,100,1.22,CN,2023-05-25
315,cidade velha,14.9167,-23.6167,24.26,73,0,6.17,CV,2023-05-25
316,vallenar,-28.5708,-70.7581,16.19,59,83,1.09,CL,2023-05-25
317,kapuskasing,49.4169,-82.4331,19.05,22,75,3.6,CA,2023-05-25
318,porto novo,6.4965,2.6036,27.9,85,81,2.13,BJ,2023-05-25
319,caucete,-31.6518,-68.2811,19.32,55,0,3.56,AR,2023-05-25
320,palmer,42.1584,-72.3287,17.86,44,20,5.66,US,2023-05-25
321,bridgewater,44.3835,-64.5155,13.71,68,95,6.69,CA,2023-05-25
322,miyoshi,35.0833,137.0667,22.01,69,88,3.67,JP,2023-05-25
323,nova olimpia,-14.7972,-57.2881,27.41,58,93,0.69,BR,2023-05-25
324,machali,-34.1833,-70.6667,11.56,77,100,2.22,CL,2023-05-25
325,bela vista de goias,-16.9728,-48.9533,22.64,62,3,2.72,BR,2023-05-25
326,victoria falls,-17.9235,25.843,17.29,45,0,1.63,ZW,2023-05-25
327,andkhoy,36.9529,65.1238,20.01,19,0,1.94,AF,2023-05-25
328,huambo,-12.7761,15.7392,18.54,56,88,0.53,AO,2023-05-25
329,perm,58.0174,56.2855,11.7,71,0,0.0,RU,2023-05-25
330,altai,46.3722,96.2583,4.11,74,100,1.21,MN,2023-05-25
331,salekhard,66.53,66.6019,14.63,70,98,4.66,RU,2023-05-25
332,ewo,-0.8725,14.8206,26.14,75,96,1.61,CG,2023-05-25
333,tegueste,28.5167,-16.3167,16.48,83,0,2.57,ES,2023-05-25
334,simoca,-27.2627,-65.3565,22.72,76,43,1.29,AR,2023-05-25
335,xining,36.6167,101.7667,7.83,83,100,0.57,CN,2023-05-25
336,bemidji,47.4736,-94.8803,25.05,42,0,6.17,US,2023-05-25
337,antsiranana,-12.2787,49.2917,22.05,92,3,2.71,MG,2023-05-25
338,murzuq,25.9155,13.9184,26.1,15,77,3.42,LY,2023-05-25
339,mechanicsburg,40.2143,-77.0086,20.42,35,83,1.34,US,2023-05-25
340,priozersk,61.0393,30.1291,10.05,87,47,2.77,RU,2023-05-25
341,lata,40.1629,-8.3327,13.55,95,3,1.25,PT,2023-05-25
342,chul'man,56.8479,124.9104,7.51,57,100,5.43,RU,2023-05-25
343,karyes,37.3,22.5,13.44,78,1,1.87,GR,2023-05-25
344,itaituba,-4.2761,-55.9836,27.4,74,99,1.19,BR,2023-05-25
345,pendleton,45.6721,-118.7886,26.35,32,0,4.12,US,2023-05-25
346,lerwick,60.1545,-1.1494,9.0,84,25,7.81,GB,2023-05-25
347,mouila,-1.8685,11.0559,23.72,98,88,0.52,GA,2023-05-25
348,kochubey,44.3861,46.5825,22.04,70,99,2.66,RU,2023-05-25
349,crane,31.3974,-102.3501,29.52,44,57,7.26,US,2023-05-25
350,markivka,49.5229,39.5705,15.56,87,58,1.32,UA,2023-05-25
351,ingeniero jacobacci,-41.3427,-69.5448,5.17,85,44,11.38,AR,2023-05-25
352,sao joao da barra,-21.6403,-41.0511,21.05,84,4,4.0,BR,2023-05-25
353,khorixas,-20.3667,14.9667,14.58,49,17,1.06,NA,2023-05-25
354,farafangana,-22.8167,47.8333,19.09,86,56,0.6,MG,2023-05-25
355,hithadhoo,-0.6,73.0833,28.62,69,26,4.33,MV,2023-05-25
356,cidreira,-30.1811,-50.2056,20.59,90,4,5.15,BR,2023-05-25
357,khandyga,62.6667,135.6,9.74,63,77,0.34,RU,2023-05-25
358,ust-tsilma,65.441,52.1498,15.2,90,72,2.61,RU,2023-05-25
359,ketchikan,55.3422,-131.6461,19.26,52,0,5.14,US,2023-05-25
360,gurupi,-11.7292,-49.0686,26.13,43,28,2.32,BR,2023-05-25
361,ma'rib,15.4591,45.3253,26.22,49,89,2.93,YE,2023-05-25
362,petrolina,-9.3986,-40.5008,26.03,78,0,3.6,BR,2023-05-25
363,port lincoln,-34.7333,135.8667,12.85,65,99,5.4,AU,2023-05-25
364,antonio enes,-16.2325,39.9086,22.6,65,1,3.1,MZ,2023-05-25
365,bismarck,46.8083,-100.7837,28.91,40,0,8.75,US,2023-05-25
366,datong,40.0936,113.2914,16.49,32,99,1.07,CN,2023-05-25
367,kapit,2.0167,112.9333,24.04,92,98,0.4,MY,2023-05-25
368,tortoli,39.9256,9.6572,17.9,63,0,5.14,IT,2023-05-25
369,kuraymah,18.55,31.85,35.34,13,2,6.39,SD,2023-05-25
370,shibetsu,43.659,145.132,14.49,69,0,1.73,JP,2023-05-25
371,el jadid,33.2549,-8.506,19.09,81,2,4.64,MA,2023-05-25
372,mucur,39.0615,34.3829,11.01,79,99,1.17,TR,2023-05-25
373,saint-philippe,-21.3585,55.7679,21.77,85,100,5.57,RE,2023-05-25
374,verkhneyarkeyevo,55.4505,54.3145,17.75,52,50,2.93,RU,2023-05-25
375,kolonia town,6.964,158.206,29.06,84,75,3.09,FM,2023-05-25
376,okha,53.5739,142.9478,4.09,82,99,5.3,RU,2023-05-25
377,lander,42.833,-108.7307,21.22,41,75,10.8,US,2023-05-25
378,nuku'alofa,-21.1333,-175.2,23.19,78,100,2.57,TO,2023-05-25
379,elizabethton,36.3487,-82.2107,25.87,49,20,1.54,US,2023-05-25
380,tuy hoa,13.0833,109.3,25.41,84,62,1.85,VN,2023-05-25
381,oranjemund,-28.55,16.4333,11.78,84,20,1.49,NA,2023-05-25
382,bahau,2.8079,102.4049,23.9,94,100,1.1,MY,2023-05-25
383,maravatio de ocampo,19.9,-100.45,25.43,26,84,0.55,MX,2023-05-25
384,dalhart,36.0595,-102.5133,24.1,56,75,6.69,US,2023-05-25
385,lebanon,36.2081,-86.2911,27.12,57,0,4.63,US,2023-05-25
386,buka,40.8108,69.1986,17.91,35,100,2.87,UZ,2023-05-25
387,shimoda,34.6667,138.95,20.61,64,61,1.97,JP,2023-05-25
388,talant,47.3369,5.0089,13.19,82,0,2.57,FR,2023-05-25
389,kapa'a,22.0752,-159.319,27.99,73,75,5.14,US,2023-05-25
390,marat,25.0701,45.4615,29.4,27,27,3.63,SA,2023-05-25
391,la'ie,21.6477,-157.9253,28.98,65,84,3.58,US,2023-05-25
392,dunedin,-45.8742,170.5036,17.11,43,100,4.02,NZ,2023-05-25
393,singrauli,24.1997,82.6753,24.62,55,1,1.66,IN,2023-05-25
394,juigne,47.7188,-0.3941,15.51,67,0,4.12,FR,2023-05-25
395,spas-demensk,54.4122,34.0226,11.72,84,19,1.59,RU,2023-05-25
396,saint-pierre,-21.3393,55.4781,21.82,78,100,6.69,RE,2023-05-25
397,mariental,-24.6333,17.9667,9.02,77,0,4.98,NA,2023-05-25
398,la passe,45.5549,-0.8967,15.13,78,0,7.39,FR,2023-05-25
399,shitanjing,39.2342,106.3439,15.91,19,100,1.9,CN,2023-05-25
400,tsiombe,-25.3,45.4833,19.43,72,2,4.76,MG,2023-05-25
401,pavlovsk,50.4578,40.1081,15.22,87,63,1.43,RU,2023-05-25
402,bandarbeyla,9.4942,50.8122,27.96,79,17,8.12,SO,2023-05-25
403,sitka,57.0531,-135.33,12.94,88,100,2.57,US,2023-05-25
404,praia da vitoria,38.7333,-27.0667,17.14,82,40,5.73,PT,2023-05-25
405,turpan,42.9333,89.1667,24.98,23,84,3.56,CN,2023-05-25
406,peace river,56.2501,-117.286,18.17,59,75,0.0,CA,2023-05-25
407,alofi,-19.0595,-169.9187,22.94,88,100,3.6,NU,2023-05-25
408,umm kaddadah,13.6017,26.6876,33.42,14,5,3.02,SD,2023-05-25
409,kangaba,11.9333,-8.4167,27.57,64,100,2.21,ML,2023-05-25
410,quirihue,-36.2833,-72.5333,9.39,80,27,2.88,CL,2023-05-25
411,ulladulla,-35.35,150.4667,11.54,83,100,5.22,AU,2023-05-25
412,nema,57.5067,50.5011,17.79,66,65,3.79,RU,2023-05-25
413,new richmond,45.123,-92.5366,23.82,43,0,3.6,US,2023-05-25
414,antofagasta,-23.65,-70.4,16.6,90,54,3.5,CL,2023-05-25
415,alice springs,-23.7,133.8833,10.75,66,40,6.17,AU,2023-05-25
416,cockburn town,21.4612,-71.1419,27.46,75,12,1.16,TC,2023-05-25
417,beyneu,45.3167,55.2,21.7,30,4,4.95,KZ,2023-05-25
418,willowmore,-33.2926,23.4895,7.83,76,97,7.68,ZA,2023-05-25
419,kzyltu,53.6364,72.3414,12.13,78,56,4.95,KZ,2023-05-25
420,acarau,-2.8856,-40.12,25.93,84,46,4.1,BR,2023-05-25
421,morehead city,34.7229,-76.726,19.03,84,100,8.49,US,2023-05-25
422,sabha,27.0377,14.4283,25.31,17,3,2.61,LY,2023-05-25
423,bubaque,11.2833,-15.8333,27.86,77,100,5.58,GW,2023-05-25
424,cherdyn',60.403,56.4787,14.82,71,64,2.22,RU,2023-05-25
425,wenchang,30.904,118.4887,22.0,84,93,1.95,CN,2023-05-25
426,kabansk,52.0486,106.6528,3.12,91,100,5.67,RU,2023-05-25
427,blagoveshchensk,50.2667,127.5333,14.34,82,75,6.0,RU,2023-05-25
428,smithers,54.7804,-127.1743,25.18,23,20,2.06,CA,2023-05-25
429,bardai,11.65,7.2333,25.28,65,23,4.63,NG,2023-05-25
430,rocha,-34.4833,-54.3333,20.24,67,99,3.35,UY,2023-05-25
431,vyborg,60.7076,28.7528,9.63,77,19,2.68,RU,2023-05-25
432,independence,39.0911,-94.4155,28.44,37,0,5.14,US,2023-05-25
433,tenabo,20.05,-90.2333,30.0,47,2,3.77,MX,2023-05-25
434,potoci,43.4086,17.8786,18.73,72,20,2.57,BA,2023-05-25
435,nenjiang,49.1833,125.2167,12.7,87,100,5.07,CN,2023-05-25
436,salinas,36.6777,-121.6555,17.34,66,100,5.66,US,2023-05-25
437,barakani,-12.1356,44.4317,25.08,70,2,4.01,KM,2023-05-25
438,rikaze,29.25,88.8833,9.17,46,62,1.89,CN,2023-05-25
439,callao,-12.0667,-77.15,24.29,60,100,6.17,PE,2023-05-25
440,karimpur,23.9667,88.6167,25.29,78,32,2.38,IN,2023-05-25
441,huarmey,-10.0681,-78.1522,22.77,76,55,4.57,PE,2023-05-25
442,antsohihy,-14.8796,47.9875,19.49,98,5,1.32,MG,2023-05-25
443,maharajgani,26.1167,84.4833,26.25,59,0,1.74,IN,2023-05-25
444,weno,7.4515,151.8468,28.44,75,93,3.85,FM,2023-05-25
445,shiqian,27.5225,108.2281,22.25,97,97,1.33,CN,2023-05-25
446,tobruk,32.0836,23.9764,19.94,80,88,10.02,LY,2023-05-25
447,baia sprie,47.6619,23.6922,13.9,94,75,0.0,RO,2023-05-25
448,san luis,-33.295,-66.3356,16.22,74,66,1.53,AR,2023-05-25
449,bankura,23.25,87.0667,26.04,68,17,1.68,IN,2023-05-25
450,skovorodino,53.9833,123.9167,9.12,83,100,3.22,RU,2023-05-25
451,pizarro,4.9533,-77.366,27.45,81,94,2.1,CO,2023-05-25
452,santa maria,-29.6842,-53.8069,18.61,88,0,1.03,BR,2023-05-25
453,kuzhener,56.8111,48.9128,16.81,71,100,3.08,RU,2023-05-25
454,basudebpur,21.1353,86.7386,27.84,64,69,2.21,IN,2023-05-25
455,berezovyy,51.6667,135.7,8.79,84,100,0.87,RU,2023-05-25
456,mount pearl,47.5166,-52.7813,3.86,94,100,3.6,CA,2023-05-25
457,rongelap,11.1635,166.8941,27.86,78,100,8.63,MH,2023-05-25
458,along,28.1667,94.7667,19.87,97,70,0.7,IN,2023-05-25
459,galliano,29.4422,-90.2992,29.0,47,40,2.57,US,2023-05-25
460,nuuk,64.1835,-51.7216,0.49,74,75,5.36,GL,2023-05-25
461,rio novo,-21.4575,-43.1253,17.12,89,1,0.54,BR,2023-05-25
462,flekkefjord,58.2971,6.6607,9.41,75,47,6.07,NO,2023-05-25
463,yeppoon,-23.1333,150.7333,19.88,79,46,1.89,AU,2023-05-25
464,garoowe,8.4054,48.4845,27.45,60,73,5.76,SO,2023-05-25
465,childress,34.4264,-100.204,27.14,50,20,4.63,US,2023-05-25
466,macau,22.2006,113.5461,28.81,89,40,5.14,MO,2023-05-25
467,choyr,46.3611,108.3611,6.82,35,54,0.57,MN,2023-05-25
468,aasiaat,68.7098,-52.8699,-1.2,86,4,3.2,GL,2023-05-25
469,daru,-9.0763,143.2092,25.87,87,100,5.77,PG,2023-05-25
470,bikenibeu village,1.3673,173.1241,28.98,84,40,2.06,KI,2023-05-25
471,aitape,-3.1374,142.3475,27.81,78,82,0.63,PG,2023-05-25
472,bayanhongor,46.7167,100.1167,2.89,52,100,0.92,MN,2023-05-25
473,aral,40.5156,81.2636,15.17,42,38,2.52,CN,2023-05-25
474,bodaybo,57.8506,114.1933,4.87,92,100,0.68,RU,2023-05-25
475,nogliki,51.8333,143.1667,5.61,84,100,2.0,RU,2023-05-25
476,itoman,26.1247,127.6694,25.21,69,20,5.66,JP,2023-05-25
477,mar del plata,-38.0023,-57.5575,18.38,99,100,3.6,AR,2023-05-25
478,thames,-37.1333,175.5333,14.78,72,2,0.65,NZ,2023-05-25
479,rabo de peixe,37.8,-25.5833,16.73,77,20,3.09,PT,2023-05-25
480,sechura,-5.5569,-80.8222,26.27,65,48,8.81,PE,2023-05-25
481,chernyshevskiy,63.0128,112.4714,3.45,67,38,4.37,RU,2023-05-25
482,lazaro cardenas,17.9583,-102.2,29.82,64,15,5.21,MX,2023-05-25
483,ulverstone,-41.15,146.1667,9.29,86,55,6.39,AU,2023-05-25
484,tual,-5.6667,132.75,27.31,70,66,8.12,ID,2023-05-25
485,zaozersk,69.4005,32.4476,8.15,46,52,5.33,RU,2023-05-25
486,ha'il,27.5219,41.6907,26.01,31,20,2.06,SA,2023-05-25
487,abepura,-2.6333,140.5833,28.45,74,20,4.12,ID,2023-05-25
488,ancud,-41.8697,-73.8203,6.99,79,90,3.94,CL,2023-05-25
489,northfield,44.4583,-93.1616,25.07,27,0,5.66,US,2023-05-25
490,satipo,-11.2522,-74.6386,23.12,87,65,0.58,PE,2023-05-25
491,chonchi,-42.6128,-73.8092,4.56,88,96,0.92,CL,2023-05-25
492,lockwood,45.8191,-108.4149,22.02,64,75,5.66,US,2023-05-25
493,hammerfest,70.6634,23.6821,6.25,61,75,7.2,NO,2023-05-25
494,merizo village,13.2658,144.6691,27.45,88,100,7.24,GU,2023-05-25
495,gejiu,23.306,103.1635,13.73,92,1,1.61,CN,2023-05-25
496,gebeit,21.0667,36.3167,25.74,66,21,3.41,SD,2023-05-25
497,alcacer do sal,38.3733,-8.5144,16.65,74,27,2.6,PT,2023-05-25
498,okhotsk,59.3833,143.3,3.25,82,100,1.45,RU,2023-05-25
499,fuerte olimpo,-21.0415,-57.8738,26.29,47,36,2.99,PY,2023-05-25
500,la mira,18.035,-102.3266,30.35,62,18,5.07,MX,2023-05-25
501,balykchy,42.4557,76.1861,7.12,65,98,0.08,KG,2023-05-25
502,anloga,5.7947,0.8973,27.67,82,91,4.13,GH,2023-05-25
503,port isabel,26.0734,-97.2086,31.05,69,0,6.26,US,2023-05-25
504,laminusa,5.5549,120.9136,28.21,78,96,3.7,PH,2023-05-25
505,tufanbeyli,38.2633,36.2206,9.32,86,22,0.75,TR,2023-05-25
506,quatre cocos,-20.2078,57.7625,22.98,85,61,6.85,MU,2023-05-25
507,lautoka,-17.6167,177.4667,26.92,61,20,5.66,FJ,2023-05-25
508,bernau bei berlin,52.6798,13.5871,13.75,65,22,2.38,DE,2023-05-25
509,mogadishu,2.0371,45.3438,26.47,78,8,5.9,SO,2023-05-25
510,saint-joseph,-21.3667,55.6167,21.21,83,100,5.85,RE,2023-05-25
511,clovis,36.8252,-119.7029,28.42,41,20,2.57,US,2023-05-25
512,ad dilam,23.9915,47.1627,31.23,21,18,2.49,SA,2023-05-25
513,selfoss,63.9331,-20.9971,6.69,77,100,5.21,IS,2023-05-25
514,vidyayevo,69.3191,32.8049,8.21,49,39,4.77,RU,2023-05-25
515,mae hong son,19.3003,97.9685,27.08,78,75,0.0,TH,2023-05-25
516,ambodifotatra,-16.9833,49.85,23.97,80,55,8.24,MG,2023-05-25
517,newman,37.3138,-121.0208,27.35,43,0,5.81,US,2023-05-25
518,san patricio,28.017,-97.5169,31.05,62,79,5.59,US,2023-05-25
519,oltinko'l,40.8011,72.1634,18.09,44,100,2.37,UZ,2023-05-25
520,pisco,-13.7,-76.2167,22.03,73,75,4.12,PE,2023-05-25
521,magadan,59.5667,150.8,9.74,85,29,1.62,RU,2023-05-25
522,jangipur,24.4667,88.0667,25.28,79,8,2.41,IN,2023-05-25
523,tolanaro,-25.0319,46.9987,18.04,77,75,1.54,MG,2023-05-25
524,tidjikja,18.5564,-11.4271,29.71,32,100,5.35,MR,2023-05-25
525,safi,32.1667,-8.8333,16.87,79,0,3.76,MA,2023-05-25
526,khao wong,16.7001,104.0902,24.95,91,90,1.58,TH,2023-05-25
527,beatrice,40.2681,-96.747,21.77,88,100,4.12,US,2023-05-25
528,nagqu,31.5,92.0,2.53,67,100,4.3,CN,2023-05-25
529,veraval,20.9,70.3667,28.58,75,2,7.93,IN,2023-05-25
530,leon,21.1167,-101.6667,32.03,50,95,4.16,MX,2023-05-25
531,nha trang,12.25,109.1833,25.0,81,89,1.79,VN,2023-05-25
532,obonoma,4.7084,6.7931,25.16,89,98,1.78,NG,2023-05-25
533,mongoumba,3.6415,18.5936,22.47,98,100,0.7,CF,2023-05-25
534,igarka,67.4667,86.5833,1.9,92,100,1.11,RU,2023-05-25
535,el bauga,18.262,33.9081,32.32,22,3,5.02,SD,2023-05-25
536,ar ruways,24.1103,52.7306,29.83,46,53,2.17,AE,2023-05-25
537,howard springs,-12.497,131.047,22.12,61,30,2.58,AU,2023-05-25
538,puerto deseado,-47.7503,-65.8938,7.33,34,3,8.05,AR,2023-05-25
539,isla del bosque,22.7333,-105.85,29.81,48,99,5.72,MX,2023-05-25
540,santa ana,33.7456,-117.8678,24.12,67,75,3.09,US,2023-05-25
541,cabedelo,-6.9811,-34.8339,25.37,82,99,6.02,BR,2023-05-25
542,chibougamau,49.9168,-74.3659,12.79,33,0,5.14,CA,2023-05-25
543,puerto gaitan,4.3133,-72.0816,27.02,81,55,2.56,CO,2023-05-25
544,amga,60.8953,131.9608,10.28,57,57,1.29,RU,2023-05-25
545,cold lake,54.4502,-110.2017,14.97,58,75,3.09,CA,2023-05-25
546,san fernando,15.0286,120.6898,27.85,81,83,1.58,PH,2023-05-25
547,prado,-17.3411,-39.2208,22.37,89,22,3.86,BR,2023-05-25
548,pyetrykaw,52.1289,28.4921,13.58,73,25,1.71,BY,2023-05-25
549,dul'durga,50.6761,113.5931,6.2,41,10,7.04,RU,2023-05-25
550,foindu,7.4108,-11.5422,24.54,96,100,1.48,SL,2023-05-25
551,broken hill,-31.95,141.4333,8.5,71,0,5.97,AU,2023-05-25
552,asia,9.5506,122.5164,27.26,82,100,2.11,PH,2023-05-25
553,spring creek,40.7266,-115.5859,16.83,42,58,0.39,US,2023-05-25
554,ulanhot,46.0833,122.0833,16.67,38,4,6.35,CN,2023-05-25
555,mount gambier,-37.8333,140.7667,10.91,68,99,4.17,AU,2023-05-25
556,saynshand,44.8824,110.1163,9.66,61,76,3.51,MN,2023-05-25
557,woolgoolga,-30.1106,153.2007,15.93,45,100,4.43,AU,2023-05-25
558,cinco saltos,-38.8222,-68.0629,15.85,25,0,7.2,AR,2023-05-25
559,tarawa,1.419,172.984,29.05,84,40,2.06,KI,2023-05-25
560,bogatyye saby,56.0102,50.4483,19.52,53,100,4.26,RU,2023-05-25
561,darwin,-12.4611,130.8418,22.16,66,0,3.09,AU,2023-05-25
562,ronne,55.1009,14.7066,10.95,71,0,6.17,DK,2023-05-25
563,chernyshevsk,52.5243,117.0174,6.95,57,93,5.13,RU,2023-05-25
564,shubarshi,48.5872,57.1869,18.08,35,1,2.92,KZ,2023-05-25
565,aibak,36.2647,68.0155,17.23,21,0,3.05,AF,2023-05-25
566,novofedorivka,46.1713,32.3178,16.51,87,72,0.81,UA,2023-05-25
567,verkhnevilyuysk,63.4453,120.3167,5.89,62,32,2.82,RU,2023-05-25
568,krutinka,56.0055,71.5113,7.47,87,27,3.49,RU,2023-05-25
